ROBOTLASER1 0 -1.570796 3.141593 0.008727 30.000000 0.001000 0 361 2.922 2.910 2.901 2.916 2.898 2.913 2.918 2.917 2.918 2.926 2.930 2.933 2.941 2.933 2.939 2.937 2.934 2.942 2.958 2.955 2.949 2.951 2.978 2.983 2.982 2.975 3.002 3.007 2.994 3.013 3.010 3.025 3.030 3.039 3.049 3.067 3.079 3.075 3.095 3.102 3.115 3.123 3.136 3.151 3.139 3.171 3.160 3.196 3.205 3.213 3.225 3.248 3.244 3.269 3.281 3.301 3.321 3.325 3.350 3.366 3.389 3.390 3.414 3.438 3.465 3.478 3.470 3.430 3.398 3.398 3.430 3.447 3.454 3.499 3.541 3.543 3.579 3.574 3.580 3.603 3.668 3.701 3.712 3.769 3.764 3.816 3.814 3.741 3.904 3.947 3.974 4.023 4.048 4.088 4.130 4.332 4.422 1.829 1.829 1.884 1.902 1.944 1.946 1.952 1.930 1.952 1.996 2.001 2.083 2.128 2.155 2.159 2.164 2.188 2.211 2.236 2.314 2.370 2.388 2.405 2.429 2.450 2.483 2.596 2.628 2.648 2.664 2.720 2.838 2.906 2.914 2.949 3.014 3.146 3.166 3.192 3.308 3.424 3.446 3.525 3.680 3.707 3.882 3.986 4.045 4.229 4.287 4.494 4.561 4.785 4.966 5.123 5.335 5.580 5.766 6.051 6.285 6.627 6.763 6.758 6.745 6.742 6.737 6.718 6.723 6.726 6.715 6.699 6.694 6.691 6.683 6.681 6.721 6.691 6.696 6.681 6.708 6.684 6.686 6.686 6.689 6.691 6.680 6.675 6.680 6.697 6.699 6.707 6.707 6.713 6.715 6.721 6.736 6.736 6.742 6.740 6.769 6.777 6.707 6.422 6.119 5.854 5.617 5.398 5.223 5.039 4.838 4.739 4.532 4.449 4.258 4.234 4.032 3.975 3.886 3.719 3.688 3.554 3.449 3.433 3.369 3.232 3.189 3.176 3.123 2.967 2.953 2.902 2.910 2.805 2.716 2.707 2.680 2.636 2.610 2.495 2.451 2.439 2.422 2.434 2.373 2.372 2.261 2.236 2.209 2.199 2.184 2.178 2.164 2.127 2.063 2.002 1.980 1.970 1.968 1.970 1.970 1.966 1.927 1.908 1.853 1.853 4.752 4.702 4.646 4.603 4.558 4.516 4.489 4.460 4.439 4.434 4.407 4.409 4.386 4.378 4.359 4.357 4.338 4.330 4.314 4.306 4.289 4.290 4.273 4.269 4.250 4.276 4.255 4.239 4.237 4.247 4.231 4.226 4.240 4.266 4.247 4.232 4.234 4.221 4.212 4.194 4.194 4.192 4.189 4.186 4.176 4.170 4.176 4.178 4.188 4.200 4.229 4.269 4.327 4.422 5.295 8.466 8.659 8.831 9.046 13.890 9.553 13.884 19.761 10.428 13.583 13.523 11.445 11.845 12.546 12.655 12.620 12.595 12.570 12.543 12.524 12.495 12.470 12.463 12.440 12.592 19.825 0.033 0.033 0.033 0.033 0.033 0.033 0.033 0.033 0.033 0.033 0.033 0.033 0.033 0.033 0.033 0.033 0.033 0.033 0 -0.040001 0.000000 0.000000 0.000000 0.000000 0.000000 0.000000 0.000000 0.000000 0.000000 0.000000 1211.520329 x 0.015885 
ROBOTLASER1 0 -1.570796 3.141593 0.008727 30.000000 0.001000 0 361 2.906 2.918 2.914 2.902 2.921 2.905 2.917 2.926 2.917 2.929 2.916 2.922 2.938 2.926 2.938 2.929 2.954 2.946 2.963 2.961 2.962 2.963 2.966 2.982 2.983 2.994 2.991 3.002 3.013 3.018 3.021 3.041 3.038 3.039 3.054 3.063 3.057 3.074 3.090 3.099 3.115 3.122 3.123 3.140 3.156 3.162 3.171 3.188 3.208 3.219 3.227 3.252 3.257 3.273 3.283 3.293 3.313 3.322 3.357 3.364 3.386 3.390 3.426 3.450 3.442 3.479 3.458 3.433 3.370 3.404 3.432 3.451 3.479 3.490 3.513 3.543 3.570 3.612 3.568 3.604 3.672 3.683 3.744 3.736 3.795 3.821 3.821 3.773 3.910 3.936 3.986 4.008 4.039 4.071 4.133 4.337 4.439 1.823 1.851 1.902 1.903 1.925 1.948 1.944 1.932 1.942 1.976 2.006 2.099 2.115 2.152 2.158 2.188 2.176 2.212 2.257 2.314 2.382 2.393 2.404 2.413 2.447 2.478 2.591 2.640 2.654 2.670 2.728 2.837 2.882 2.906 2.946 3.021 3.142 3.184 3.208 3.316 3.398 3.442 3.527 3.689 3.705 3.892 3.975 4.055 4.237 4.281 4.507 4.572 4.785 4.976 5.128 5.338 5.572 5.779 6.069 6.295 6.633 6.753 6.758 6.739 6.736 6.728 6.731 6.731 6.721 6.716 6.702 6.699 6.694 6.684 6.688 6.718 6.686 6.689 6.678 6.707 6.697 6.672 6.680 6.697 6.691 6.684 6.684 6.684 6.705 6.702 6.707 6.710 6.721 6.716 6.713 6.718 6.744 6.739 6.758 6.761 6.779 6.705 6.409 6.119 5.865 5.628 5.386 5.228 5.037 4.846 4.737 4.524 4.457 4.257 4.237 4.043 3.954 3.877 3.732 3.680 3.551 3.463 3.410 3.368 3.225 3.199 3.159 3.122 2.983 2.949 2.916 2.894 2.813 2.727 2.675 2.670 2.634 2.607 2.507 2.469 2.446 2.418 2.430 2.392 2.361 2.277 2.240 2.220 2.188 2.197 2.184 2.170 2.127 2.051 2.014 1.992 1.968 1.974 1.976 1.988 1.942 1.938 1.909 1.875 1.841 4.765 4.691 4.657 4.612 4.561 4.521 4.471 4.462 4.439 4.436 4.410 4.396 4.386 4.367 4.351 4.348 4.351 4.333 4.309 4.306 4.287 4.279 4.269 4.258 4.273 4.263 4.274 4.239 4.239 4.250 4.236 4.239 4.229 4.260 4.247 4.237 4.229 4.215 4.205 4.186 4.184 4.192 4.184 4.181 4.160 4.173 4.184 4.175 4.178 4.191 4.226 4.260 4.317 4.393 5.271 8.464 8.664 8.841 9.047 13.879 9.556 9.781 19.804 19.775 13.536 13.541 11.448 11.851 12.536 12.642 12.630 12.595 12.567 12.537 12.515 12.499 12.477 12.460 12.437 12.586 19.804 0.033 0.033 0.033 0.033 0.033 0.033 0.033 0.033 0.033 0.033 0.033 0.033 0.033 0.033 0.033 0.033 0.033 0.033 0 -0.040001 0.000000 0.000000 0.000000 0.000000 0.000000 0.000000 0.000000 0.000000 0.000000 0.000000 1211.520329 x 0.015885 
ROBOTLASER1 0 -1.570796 3.141593 0.008727 30.000000 0.001000 0 361 2.908 2.917 2.906 2.913 2.908 2.912 2.920 2.906 2.926 2.925 2.918 2.938 2.939 2.922 2.937 2.937 2.942 2.954 2.957 2.955 2.951 2.966 2.975 2.969 2.986 2.978 2.982 3.005 3.013 3.011 3.030 3.021 3.041 3.043 3.051 3.049 3.071 3.076 3.091 3.091 3.107 3.111 3.136 3.146 3.154 3.167 3.159 3.191 3.213 3.220 3.224 3.223 3.261 3.275 3.276 3.305 3.321 3.313 3.357 3.366 3.378 3.384 3.434 3.442 3.459 3.481 3.459 3.434 3.394 3.402 3.424 3.455 3.477 3.497 3.525 3.546 3.571 3.595 3.583 3.619 3.662 3.691 3.716 3.779 3.789 3.825 3.837 3.744 3.924 3.950 3.990 4.034 4.043 4.088 4.125 4.335 4.434 1.801 1.847 1.881 1.885 1.932 1.935 1.940 1.928 1.938 1.970 1.994 2.106 2.138 2.156 2.172 2.195 2.176 2.209 2.241 2.325 2.365 2.389 2.402 2.422 2.434 2.494 2.596 2.624 2.650 2.668 2.721 2.834 2.904 2.897 2.925 3.023 3.136 3.180 3.208 3.317 3.418 3.450 3.521 3.680 3.711 3.884 3.962 4.050 4.231 4.285 4.479 4.564 4.774 4.963 5.138 5.346 5.574 5.785 6.050 6.287 6.635 6.760 6.750 6.744 6.739 6.734 6.724 6.729 6.713 6.710 6.712 6.699 6.696 6.683 6.684 6.720 6.681 6.688 6.678 6.720 6.684 6.688 6.683 6.691 6.702 6.684 6.681 6.691 6.707 6.705 6.700 6.705 6.705 6.699 6.718 6.723 6.732 6.739 6.753 6.769 6.768 6.699 6.401 6.109 5.859 5.615 5.398 5.210 5.048 4.835 4.731 4.535 4.444 4.271 4.224 4.040 3.969 3.873 3.708 3.689 3.562 3.461 3.426 3.373 3.244 3.196 3.176 3.103 2.971 2.941 2.930 2.904 2.818 2.715 2.704 2.668 2.668 2.604 2.509 2.483 2.432 2.439 2.404 2.386 2.342 2.271 2.239 2.203 2.184 2.188 2.192 2.163 2.127 2.062 2.025 1.998 1.962 1.960 1.972 1.962 1.934 1.948 1.912 1.859 1.821 4.747 4.689 4.643 4.598 4.564 4.521 4.481 4.460 4.444 4.431 4.412 4.396 4.375 4.365 4.359 4.361 4.338 4.317 4.313 4.306 4.306 4.295 4.281 4.260 4.260 4.258 4.247 4.239 4.255 4.239 4.242 4.223 4.247 4.274 4.252 4.242 4.228 4.224 4.213 4.202 4.188 4.191 4.194 4.176 4.172 4.197 4.178 4.191 4.183 4.202 4.239 4.284 4.327 4.436 5.285 8.470 8.681 8.832 9.047 13.845 9.572 9.816 19.765 10.402 13.544 13.538 11.459 11.831 12.540 12.647 12.624 12.598 12.568 12.525 12.521 12.509 12.480 12.456 12.440 12.581 19.822 0.033 0.033 0.033 0.033 0.033 0.033 0.033 0.033 0.033 0.033 0.033 0.033 0.033 0.033 0.033 0.033 0.033 0.033 0 -0.040001 0.000000 0.000000 0.000000 0.000000 0.000000 0.000000 0.000000 0.000000 0.000000 0.000000 1211.520329 x 0.015885 
ROBOTLASER1 0 -1.570796 3.141593 0.008727 30.000000 0.001000 0 361 2.904 2.917 2.906 2.906 2.913 2.909 2.920 2.918 2.918 2.922 2.910 2.932 2.933 2.938 2.943 2.946 2.947 2.942 2.958 2.958 2.945 2.973 2.973 2.975 2.979 2.978 3.007 2.989 3.007 3.021 3.023 3.031 3.019 3.038 3.063 3.062 3.070 3.071 3.095 3.106 3.107 3.104 3.111 3.158 3.158 3.163 3.170 3.174 3.204 3.216 3.232 3.247 3.237 3.264 3.285 3.303 3.324 3.314 3.341 3.373 3.390 3.408 3.422 3.443 3.466 3.470 3.474 3.414 3.398 3.410 3.425 3.453 3.466 3.502 3.519 3.547 3.588 3.606 3.574 3.598 3.680 3.680 3.724 3.753 3.791 3.821 3.807 3.751 3.916 3.946 3.986 4.010 4.051 4.103 4.149 4.343 4.425 1.804 1.859 1.902 1.914 1.924 1.940 1.948 1.938 1.944 1.964 2.005 2.092 2.136 2.148 2.174 2.174 2.186 2.216 2.236 2.308 2.370 2.406 2.402 2.421 2.454 2.485 2.604 2.640 2.663 2.672 2.732 2.830 2.904 2.926 2.941 3.026 3.143 3.179 3.201 3.316 3.418 3.446 3.514 3.688 3.720 3.885 3.953 4.055 4.207 4.290 4.495 4.571 4.777 4.976 5.130 5.332 5.575 5.789 6.050 6.281 6.636 6.760 6.761 6.748 6.737 6.739 6.724 6.726 6.720 6.723 6.694 6.694 6.694 6.688 6.684 6.718 6.689 6.688 6.691 6.707 6.697 6.680 6.673 6.686 6.691 6.681 6.681 6.689 6.700 6.699 6.710 6.705 6.713 6.715 6.721 6.726 6.732 6.736 6.748 6.763 6.774 6.686 6.394 6.114 5.859 5.620 5.386 5.216 5.040 4.830 4.734 4.526 4.465 4.269 4.218 4.043 3.953 3.885 3.705 3.689 3.557 3.454 3.412 3.369 3.241 3.192 3.174 3.124 2.990 2.957 2.938 2.912 2.820 2.716 2.692 2.682 2.652 2.611 2.507 2.462 2.441 2.426 2.408 2.381 2.346 2.260 2.240 2.212 2.207 2.192 2.171 2.163 2.131 2.059 2.018 1.990 1.968 1.976 1.996 1.960 1.962 1.930 1.915 1.857 1.857 4.742 4.700 4.657 4.601 4.564 4.518 4.482 4.463 4.449 4.434 4.412 4.399 4.386 4.383 4.357 4.343 4.353 4.324 4.316 4.303 4.300 4.279 4.287 4.263 4.247 4.268 4.250 4.266 4.260 4.229 4.229 4.242 4.234 4.245 4.248 4.239 4.224 4.223 4.210 4.202 4.183 4.180 4.184 4.197 4.180 4.173 4.186 4.186 4.191 4.205 4.223 4.253 4.317 4.365 5.276 8.473 8.659 8.832 13.948 13.983 9.566 9.809 14.672 10.398 10.684 13.505 11.477 11.854 12.527 12.643 12.630 12.594 12.576 12.541 12.514 12.496 12.480 12.460 12.427 12.599 19.826 0.033 0.033 0.033 0.033 0.033 0.033 0.033 0.033 0.033 0.033 0.033 0.033 0.033 0.033 0.033 0.033 0.033 0.033 0 -0.040001 0.000000 0.000000 0.000000 0.000000 0.000000 0.000000 0.000000 0.000000 0.000000 0.000000 1211.520329 x 0.015885 
ROBOTLASER1 0 -1.570796 3.141593 0.008727 30.000000 0.001000 0 361 2.908 2.914 2.901 2.921 2.921 2.914 2.920 2.902 2.929 2.902 2.922 2.926 2.921 2.928 2.926 2.941 2.939 2.938 2.957 2.959 2.965 2.970 2.969 2.977 2.979 2.987 2.995 2.993 3.011 3.019 3.019 3.035 3.030 3.051 3.063 3.053 3.063 3.071 3.084 3.111 3.110 3.122 3.122 3.131 3.156 3.171 3.178 3.191 3.205 3.227 3.232 3.244 3.240 3.269 3.292 3.305 3.314 3.337 3.354 3.369 3.385 3.406 3.405 3.436 3.462 3.485 3.477 3.425 3.390 3.406 3.430 3.446 3.478 3.507 3.527 3.542 3.572 3.591 3.575 3.596 3.647 3.692 3.717 3.755 3.785 3.836 3.828 3.752 3.925 3.945 3.977 4.008 4.045 4.082 4.149 4.322 4.426 1.829 1.853 1.899 1.921 1.930 1.942 1.950 1.940 1.942 1.970 2.011 2.079 2.120 2.156 2.162 2.175 2.193 2.207 2.228 2.330 2.376 2.386 2.404 2.414 2.433 2.499 2.587 2.639 2.656 2.684 2.724 2.828 2.906 2.908 2.947 3.017 3.152 3.176 3.204 3.305 3.414 3.442 3.525 3.671 3.700 3.876 3.978 4.021 4.239 4.292 4.495 4.571 4.774 4.963 5.122 5.340 5.564 5.766 6.045 6.285 6.630 6.765 6.750 6.744 6.742 6.729 6.728 6.718 6.718 6.715 6.705 6.694 6.691 6.689 6.681 6.718 6.692 6.681 6.686 6.713 6.678 6.665 6.670 6.692 6.699 6.684 6.680 6.692 6.691 6.691 6.707 6.712 6.723 6.716 6.721 6.729 6.739 6.747 6.740 6.752 6.771 6.697 6.386 6.125 5.849 5.628 5.401 5.210 5.061 4.837 4.726 4.529 4.455 4.247 4.212 4.045 3.951 3.893 3.720 3.680 3.553 3.458 3.434 3.384 3.248 3.195 3.175 3.119 2.990 2.938 2.918 2.898 2.824 2.713 2.700 2.666 2.656 2.607 2.498 2.481 2.439 2.425 2.406 2.380 2.364 2.273 2.249 2.212 2.189 2.197 2.183 2.152 2.128 2.051 2.037 1.988 1.960 1.968 1.974 1.994 1.954 1.920 1.909 1.869 1.853 4.750 4.688 4.657 4.607 4.555 4.518 4.479 4.452 4.433 4.433 4.407 4.404 4.394 4.378 4.370 4.348 4.346 4.319 4.311 4.293 4.289 4.282 4.290 4.255 4.263 4.269 4.253 4.257 4.247 4.242 4.232 4.229 4.237 4.261 4.269 4.237 4.231 4.220 4.226 4.204 4.191 4.200 4.184 4.173 4.176 4.186 4.191 4.186 4.188 4.200 4.237 4.266 4.338 4.399 5.276 8.472 8.677 8.819 9.043 13.860 9.575 9.800 14.675 10.416 13.553 13.554 11.483 11.873 12.547 12.652 12.634 12.600 12.560 12.534 12.512 12.498 12.483 12.456 12.444 12.592 19.823 0.033 0.033 0.033 0.033 0.033 0.033 0.033 0.033 0.033 0.033 0.033 0.033 0.033 0.033 0.033 0.033 0.033 0.033 0 -0.040001 0.000000 0.000000 0.000000 0.000000 0.000000 0.000000 0.000000 0.000000 0.000000 0.000000 1211.520329 x 0.015885 
ROBOTLASER1 0 -1.570796 3.141593 0.008727 30.000000 0.001000 0 361 2.910 2.918 2.905 2.916 2.913 2.918 2.910 2.909 2.912 2.914 2.918 2.925 2.932 2.936 2.938 2.939 2.934 2.951 2.961 2.959 2.954 2.971 2.970 2.977 2.985 2.982 2.997 3.007 3.010 3.025 3.026 3.015 3.043 3.035 3.062 3.054 3.074 3.082 3.088 3.100 3.098 3.123 3.138 3.140 3.144 3.174 3.182 3.184 3.207 3.217 3.232 3.235 3.256 3.269 3.284 3.291 3.307 3.333 3.340 3.348 3.374 3.418 3.429 3.426 3.469 3.477 3.471 3.429 3.374 3.414 3.432 3.450 3.478 3.502 3.523 3.542 3.570 3.591 3.583 3.598 3.668 3.697 3.704 3.768 3.789 3.797 3.816 3.741 3.910 3.930 3.994 4.011 4.048 4.091 4.133 4.333 4.420 1.801 1.857 1.897 1.906 1.916 1.940 1.958 1.950 1.938 1.976 2.026 2.086 2.127 2.143 2.158 2.172 2.176 2.205 2.235 2.318 2.361 2.402 2.426 2.422 2.437 2.501 2.591 2.651 2.647 2.688 2.720 2.841 2.906 2.928 2.953 3.015 3.156 3.176 3.196 3.301 3.428 3.447 3.514 3.680 3.712 3.889 3.951 4.042 4.237 4.295 4.481 4.572 4.781 4.966 5.122 5.335 5.569 5.781 6.061 6.284 6.617 6.765 6.755 6.745 6.739 6.726 6.724 6.716 6.718 6.707 6.702 6.697 6.696 6.691 6.683 6.723 6.694 6.692 6.686 6.704 6.676 6.678 6.681 6.697 6.689 6.684 6.691 6.683 6.691 6.696 6.710 6.710 6.726 6.723 6.721 6.729 6.734 6.747 6.753 6.765 6.779 6.705 6.412 6.106 5.872 5.612 5.393 5.218 5.048 4.843 4.728 4.519 4.449 4.273 4.229 4.040 3.975 3.886 3.732 3.691 3.551 3.453 3.429 3.374 3.245 3.193 3.164 3.118 2.971 2.957 2.913 2.910 2.812 2.704 2.680 2.679 2.650 2.591 2.502 2.455 2.430 2.434 2.417 2.388 2.350 2.261 2.253 2.217 2.188 2.197 2.176 2.174 2.136 2.041 2.021 1.990 1.972 1.964 1.976 1.976 1.964 1.946 1.898 1.859 1.843 4.742 4.699 4.652 4.609 4.564 4.516 4.487 4.466 4.436 4.447 4.412 4.390 4.388 4.372 4.372 4.340 4.332 4.327 4.324 4.309 4.282 4.285 4.273 4.282 4.261 4.269 4.247 4.255 4.237 4.245 4.237 4.240 4.258 4.247 4.239 4.236 4.234 4.239 4.208 4.194 4.191 4.191 4.184 4.168 4.165 4.192 4.180 4.181 4.170 4.184 4.220 4.255 4.316 4.370 5.284 8.459 8.665 8.829 9.043 13.883 9.566 9.790 14.669 10.411 13.547 13.533 11.469 11.813 12.555 12.650 12.624 12.595 12.563 12.549 12.525 12.502 12.467 12.456 12.437 12.586 19.834 0.033 0.033 0.033 0.033 0.033 0.033 0.033 0.033 0.033 0.033 0.033 0.033 0.033 0.033 0.033 0.033 0.033 0.033 0 -0.040001 0.000000 0.000000 0.000000 0.000000 0.000000 0.000000 0.000000 0.000000 0.000000 0.000000 1211.520329 x 0.015885 
ROBOTLASER1 0 -1.570796 3.141593 0.008727 30.000000 0.001000 0 361 2.920 2.902 2.912 2.918 2.902 2.921 2.920 2.914 2.920 2.933 2.914 2.922 2.928 2.934 2.933 2.926 2.942 2.953 2.942 2.963 2.953 2.974 2.967 2.971 2.975 2.995 2.994 2.994 3.007 3.015 3.019 3.033 3.035 3.054 3.059 3.063 3.070 3.075 3.078 3.096 3.106 3.120 3.132 3.123 3.144 3.172 3.176 3.176 3.189 3.205 3.227 3.247 3.235 3.256 3.287 3.292 3.324 3.336 3.337 3.374 3.382 3.386 3.430 3.434 3.441 3.463 3.455 3.428 3.400 3.406 3.426 3.434 3.469 3.511 3.529 3.542 3.571 3.615 3.582 3.603 3.650 3.703 3.709 3.773 3.760 3.808 3.829 3.756 3.910 3.947 3.958 4.015 4.066 4.082 4.152 4.333 4.422 1.802 1.833 1.879 1.899 1.948 1.935 1.948 1.932 1.950 1.960 2.019 2.088 2.119 2.167 2.170 2.172 2.204 2.213 2.228 2.307 2.373 2.402 2.396 2.417 2.438 2.486 2.608 2.640 2.668 2.666 2.729 2.825 2.898 2.905 2.942 3.023 3.152 3.174 3.200 3.320 3.414 3.450 3.538 3.691 3.708 3.881 3.969 4.043 4.223 4.303 4.497 4.569 4.774 4.965 5.125 5.343 5.566 5.755 6.053 6.263 6.630 6.755 6.752 6.747 6.736 6.734 6.729 6.724 6.715 6.720 6.699 6.694 6.694 6.688 6.686 6.716 6.689 6.686 6.681 6.707 6.681 6.681 6.686 6.694 6.691 6.676 6.684 6.688 6.700 6.694 6.699 6.707 6.723 6.713 6.720 6.729 6.728 6.731 6.752 6.766 6.777 6.704 6.410 6.114 5.854 5.623 5.386 5.221 5.048 4.830 4.729 4.534 4.455 4.260 4.220 4.032 3.967 3.885 3.735 3.696 3.549 3.442 3.421 3.362 3.224 3.200 3.182 3.115 2.990 2.930 2.933 2.881 2.821 2.720 2.688 2.676 2.642 2.611 2.498 2.462 2.450 2.430 2.405 2.392 2.349 2.260 2.231 2.199 2.200 2.196 2.179 2.164 2.130 2.068 2.014 1.984 1.974 1.972 1.978 1.992 1.938 1.927 1.898 1.886 1.847 4.745 4.686 4.646 4.607 4.551 4.519 4.489 4.466 4.439 4.426 4.415 4.394 4.393 4.372 4.359 4.345 4.343 4.338 4.319 4.305 4.292 4.300 4.266 4.261 4.255 4.260 4.252 4.247 4.236 4.253 4.234 4.231 4.224 4.253 4.245 4.244 4.231 4.221 4.215 4.202 4.197 4.176 4.188 4.191 4.184 4.188 4.178 4.189 4.207 4.192 4.224 4.265 4.338 4.434 5.281 8.470 8.671 8.828 9.053 13.847 9.559 9.791 19.733 10.419 13.552 13.502 11.475 11.864 12.524 12.648 12.626 12.592 12.572 12.544 12.525 12.508 12.482 12.457 12.426 12.598 19.802 0.033 0.033 0.033 0.033 0.033 0.033 0.033 0.033 0.033 0.033 0.033 0.033 0.033 0.033 0.033 0.033 0.033 0.033 0 -0.040001 0.000000 0.000000 0.000000 0.000000 0.000000 0.000000 0.000000 0.000000 0.000000 0.000000 1211.520329 x 0.015885 
ROBOTLASER1 0 -1.570796 3.141593 0.008727 30.000000 0.001000 0 361 2.912 2.900 2.910 2.920 2.910 2.918 2.914 2.914 2.916 2.918 2.928 2.925 2.922 2.942 2.943 2.938 2.949 2.938 2.953 2.962 2.966 2.970 2.977 2.987 2.975 3.005 2.987 3.002 3.002 3.011 3.025 3.019 3.037 3.037 3.049 3.070 3.057 3.074 3.090 3.103 3.107 3.124 3.123 3.152 3.156 3.158 3.176 3.186 3.205 3.221 3.232 3.251 3.253 3.277 3.265 3.297 3.318 3.334 3.344 3.373 3.390 3.402 3.426 3.430 3.466 3.478 3.461 3.432 3.373 3.402 3.430 3.453 3.479 3.505 3.526 3.547 3.563 3.571 3.575 3.579 3.684 3.712 3.727 3.759 3.793 3.817 3.818 3.757 3.889 3.950 3.994 4.015 4.048 4.082 4.122 4.333 4.417 1.813 1.869 1.890 1.896 1.926 1.968 1.976 1.926 1.944 1.972 2.022 2.090 2.143 2.148 2.175 2.174 2.175 2.204 2.239 2.325 2.373 2.384 2.402 2.425 2.445 2.490 2.599 2.652 2.656 2.666 2.721 2.833 2.906 2.906 2.934 3.018 3.158 3.172 3.215 3.322 3.394 3.450 3.531 3.689 3.713 3.880 3.970 4.063 4.213 4.290 4.481 4.574 4.785 4.965 5.130 5.327 5.574 5.774 6.055 6.292 6.622 6.763 6.763 6.737 6.744 6.728 6.731 6.731 6.715 6.715 6.696 6.699 6.691 6.680 6.684 6.716 6.686 6.684 6.672 6.697 6.692 6.668 6.670 6.688 6.697 6.676 6.670 6.684 6.691 6.705 6.704 6.710 6.723 6.715 6.720 6.726 6.739 6.731 6.745 6.757 6.776 6.705 6.412 6.095 5.862 5.611 5.388 5.207 5.047 4.835 4.737 4.526 4.455 4.269 4.226 4.034 3.978 3.870 3.727 3.687 3.557 3.461 3.413 3.357 3.243 3.188 3.172 3.103 2.983 2.938 2.930 2.902 2.818 2.721 2.700 2.672 2.644 2.619 2.507 2.462 2.434 2.426 2.412 2.378 2.354 2.269 2.233 2.217 2.184 2.178 2.195 2.179 2.131 2.046 2.007 2.007 1.970 1.972 1.974 1.966 1.934 1.930 1.903 1.867 1.847 4.757 4.699 4.648 4.603 4.569 4.513 4.479 4.455 4.454 4.426 4.415 4.398 4.385 4.377 4.359 4.341 4.343 4.330 4.316 4.292 4.287 4.285 4.290 4.276 4.261 4.266 4.258 4.250 4.240 4.242 4.231 4.245 4.231 4.247 4.247 4.239 4.231 4.213 4.215 4.197 4.194 4.192 4.173 4.181 4.170 4.175 4.189 4.173 4.173 4.196 4.212 4.258 4.329 4.386 5.287 8.440 8.662 8.841 13.995 13.873 9.547 9.770 19.769 10.398 13.546 13.557 11.445 11.845 12.537 12.640 12.623 12.605 12.572 12.546 12.519 12.509 12.480 12.437 12.440 12.586 19.814 0.033 0.033 0.033 0.033 0.033 0.033 0.033 0.033 0.033 0.033 0.033 0.033 0.033 0.033 0.033 0.033 0.033 0.033 0 -0.040001 0.000000 0.000000 0.000000 0.000000 0.000000 0.000000 0.000000 0.000000 0.000000 0.000000 1211.520329 x 0.015885 
ROBOTLASER1 0 -1.570796 3.141593 0.008727 30.000000 0.001000 0 361 2.893 2.905 2.913 2.900 2.921 2.905 2.904 2.913 2.912 2.922 2.928 2.922 2.922 2.937 2.945 2.943 2.953 2.932 2.961 2.946 2.957 2.969 2.966 2.982 2.982 2.985 2.994 3.011 3.005 3.018 3.027 3.018 3.038 3.035 3.059 3.053 3.075 3.071 3.099 3.103 3.111 3.126 3.127 3.142 3.152 3.167 3.171 3.189 3.204 3.212 3.227 3.221 3.249 3.272 3.293 3.304 3.304 3.336 3.349 3.373 3.381 3.396 3.421 3.443 3.447 3.482 3.490 3.432 3.397 3.412 3.434 3.454 3.454 3.502 3.510 3.542 3.547 3.584 3.570 3.594 3.684 3.680 3.732 3.756 3.787 3.814 3.825 3.775 3.906 3.924 3.995 4.005 4.035 4.093 4.128 4.337 4.415 1.802 1.863 1.873 1.894 1.923 1.946 1.950 1.942 1.948 1.960 1.990 2.099 2.132 2.136 2.164 2.168 2.184 2.209 2.229 2.314 2.364 2.396 2.398 2.426 2.430 2.485 2.591 2.654 2.664 2.687 2.716 2.845 2.900 2.918 2.946 3.031 3.150 3.156 3.200 3.317 3.413 3.458 3.533 3.691 3.728 3.890 3.970 4.053 4.232 4.279 4.492 4.577 4.777 4.965 5.112 5.338 5.566 5.785 6.064 6.276 6.632 6.765 6.755 6.739 6.742 6.734 6.721 6.724 6.723 6.713 6.707 6.694 6.681 6.683 6.670 6.720 6.688 6.691 6.673 6.713 6.686 6.676 6.668 6.689 6.689 6.672 6.681 6.681 6.704 6.692 6.710 6.700 6.721 6.715 6.721 6.728 6.742 6.747 6.742 6.763 6.776 6.697 6.407 6.119 5.851 5.625 5.385 5.234 5.048 4.846 4.739 4.535 4.460 4.274 4.229 4.037 3.966 3.861 3.720 3.691 3.559 3.474 3.414 3.369 3.237 3.195 3.175 3.114 2.973 2.950 2.921 2.886 2.817 2.724 2.696 2.656 2.656 2.603 2.502 2.459 2.441 2.438 2.408 2.402 2.361 2.271 2.227 2.209 2.188 2.186 2.180 2.175 2.130 2.049 2.014 1.996 1.968 1.970 1.994 1.974 1.952 1.922 1.913 1.873 1.847 4.742 4.696 4.651 4.604 4.566 4.518 4.487 4.455 4.455 4.425 4.409 4.404 4.390 4.377 4.369 4.346 4.337 4.340 4.325 4.319 4.287 4.292 4.285 4.248 4.257 4.258 4.242 4.237 4.239 4.244 4.236 4.223 4.245 4.250 4.247 4.255 4.242 4.242 4.205 4.199 4.199 4.215 4.181 4.178 4.176 4.189 4.173 4.189 4.200 4.184 4.239 4.265 4.341 4.418 5.295 8.473 8.678 8.857 14.034 13.910 9.566 9.770 19.769 10.419 13.556 13.520 11.454 11.900 12.543 12.636 12.629 12.597 12.560 12.530 12.512 12.507 12.477 12.460 12.427 12.592 19.863 0.033 0.033 0.033 0.033 0.033 0.033 0.033 0.033 0.033 0.033 0.033 0.033 0.033 0.033 0.033 0.033 0.033 0.033 0 -0.040001 0.000000 0.000000 0.000000 0.000000 0.000000 0.000000 0.000000 0.000000 0.000000 0.000000 1211.520329 x 0.015885 
ROBOTLASER1 0 -1.570796 3.141593 0.008727 30.000000 0.001000 0 361 2.922 2.894 2.924 2.914 2.906 2.918 2.914 2.910 2.921 2.916 2.930 2.932 2.934 2.932 2.925 2.930 2.961 2.946 2.943 2.949 2.955 2.973 2.958 2.978 2.983 2.986 2.987 3.002 3.017 3.025 3.026 3.029 3.027 3.042 3.042 3.064 3.067 3.075 3.095 3.095 3.112 3.124 3.124 3.136 3.144 3.168 3.174 3.184 3.200 3.212 3.217 3.248 3.240 3.269 3.271 3.289 3.314 3.322 3.352 3.369 3.382 3.386 3.404 3.450 3.454 3.470 3.470 3.429 3.385 3.398 3.410 3.455 3.471 3.491 3.518 3.537 3.564 3.592 3.587 3.608 3.684 3.700 3.723 3.752 3.781 3.829 3.824 3.761 3.892 3.950 3.981 4.007 4.056 4.088 4.135 4.338 4.430 1.819 1.839 1.893 1.908 1.917 1.940 1.946 1.940 1.944 1.950 1.996 2.095 2.132 2.151 2.167 2.172 2.196 2.200 2.227 2.301 2.373 2.390 2.426 2.413 2.438 2.503 2.596 2.643 2.648 2.684 2.715 2.833 2.898 2.920 2.924 3.022 3.150 3.186 3.208 3.316 3.418 3.451 3.526 3.672 3.720 3.890 3.965 4.043 4.231 4.295 4.492 4.567 4.773 4.963 5.140 5.335 5.555 5.782 6.059 6.269 6.622 6.763 6.757 6.753 6.742 6.729 6.731 6.726 6.716 6.708 6.707 6.702 6.686 6.686 6.680 6.720 6.683 6.675 6.681 6.710 6.692 6.673 6.676 6.688 6.694 6.670 6.689 6.689 6.699 6.696 6.710 6.712 6.718 6.707 6.710 6.721 6.732 6.744 6.757 6.769 6.771 6.699 6.410 6.120 5.854 5.625 5.378 5.221 5.045 4.838 4.739 4.523 4.460 4.266 4.220 4.037 3.977 3.894 3.716 3.678 3.553 3.462 3.438 3.368 3.240 3.204 3.159 3.107 2.990 2.950 2.930 2.914 2.821 2.720 2.697 2.684 2.639 2.603 2.507 2.466 2.434 2.433 2.401 2.376 2.368 2.288 2.256 2.228 2.189 2.174 2.186 2.172 2.147 2.051 2.014 2.005 1.984 1.964 1.976 1.986 1.944 1.935 1.931 1.875 1.853 4.760 4.700 4.652 4.611 4.559 4.518 4.476 4.457 4.439 4.431 4.410 4.390 4.386 4.375 4.367 4.348 4.335 4.332 4.319 4.306 4.311 4.293 4.274 4.277 4.242 4.258 4.253 4.260 4.234 4.231 4.245 4.229 4.224 4.255 4.237 4.229 4.245 4.223 4.202 4.194 4.188 4.192 4.199 4.173 4.170 4.170 4.176 4.178 4.176 4.192 4.218 4.260 4.303 4.386 5.274 8.450 8.677 8.835 13.967 13.899 9.581 9.777 19.807 10.402 13.581 13.525 11.482 11.848 12.544 12.640 12.621 12.597 12.560 12.540 12.512 12.490 12.480 12.459 12.434 12.608 19.823 0.033 0.033 0.033 0.033 0.033 0.033 0.033 0.033 0.033 0.033 0.033 0.033 0.033 0.033 0.033 0.033 0.033 0.033 0 -0.040001 0.000000 0.000000 0.000000 0.000000 0.000000 0.000000 0.000000 0.000000 0.000000 0.000000 1211.520329 x 0.015885 
ROBOTLASER1 0 -1.570796 3.141593 0.008727 30.000000 0.001000 0 361 2.917 2.902 2.902 2.902 2.914 2.910 2.902 2.920 2.920 2.922 2.929 2.933 2.938 2.938 2.926 2.926 2.946 2.954 2.938 2.959 2.950 2.961 2.961 2.975 2.966 2.997 2.994 2.981 3.007 3.019 3.023 3.033 3.033 3.034 3.061 3.068 3.074 3.084 3.091 3.098 3.116 3.111 3.130 3.136 3.151 3.156 3.175 3.172 3.191 3.216 3.225 3.243 3.233 3.265 3.281 3.289 3.309 3.341 3.353 3.350 3.365 3.386 3.422 3.439 3.458 3.475 3.478 3.436 3.394 3.401 3.436 3.446 3.462 3.511 3.505 3.545 3.567 3.584 3.582 3.584 3.668 3.700 3.745 3.740 3.781 3.814 3.817 3.763 3.908 3.953 3.986 4.005 4.047 4.091 4.120 4.333 4.423 1.813 1.865 1.899 1.896 1.932 1.940 1.950 1.933 1.934 1.964 1.996 2.076 2.112 2.140 2.164 2.193 2.180 2.200 2.239 2.314 2.373 2.400 2.406 2.413 2.442 2.482 2.603 2.651 2.672 2.679 2.711 2.836 2.892 2.900 2.938 3.021 3.140 3.159 3.204 3.326 3.418 3.445 3.519 3.684 3.725 3.865 3.975 4.051 4.223 4.271 4.486 4.566 4.779 4.971 5.120 5.332 5.566 5.785 6.064 6.282 6.622 6.757 6.750 6.747 6.739 6.734 6.731 6.729 6.712 6.712 6.702 6.702 6.686 6.686 6.684 6.710 6.686 6.689 6.676 6.704 6.676 6.668 6.684 6.688 6.692 6.681 6.689 6.688 6.689 6.689 6.707 6.713 6.716 6.707 6.716 6.729 6.737 6.750 6.744 6.758 6.777 6.705 6.404 6.112 5.864 5.614 5.396 5.210 5.043 4.840 4.723 4.524 4.454 4.274 4.207 4.045 3.959 3.898 3.731 3.670 3.555 3.442 3.439 3.377 3.236 3.192 3.155 3.123 2.989 2.928 2.928 2.884 2.813 2.728 2.697 2.678 2.635 2.607 2.491 2.450 2.436 2.426 2.413 2.390 2.352 2.271 2.236 2.228 2.200 2.183 2.172 2.162 2.134 2.061 2.006 1.988 1.974 1.970 1.982 1.988 1.942 1.925 1.908 1.875 1.849 4.758 4.702 4.649 4.601 4.551 4.513 4.486 4.449 4.447 4.431 4.409 4.410 4.383 4.378 4.364 4.348 4.348 4.314 4.309 4.301 4.295 4.277 4.269 4.269 4.255 4.268 4.253 4.250 4.244 4.250 4.234 4.224 4.237 4.258 4.252 4.240 4.228 4.216 4.218 4.199 4.184 4.188 4.175 4.184 4.168 4.181 4.186 4.191 4.191 4.184 4.231 4.269 4.338 4.449 5.292 8.473 8.675 8.848 13.976 13.836 9.566 9.807 10.095 10.408 13.563 13.531 11.486 11.822 12.552 12.661 12.634 12.595 12.569 12.544 12.525 12.496 12.482 12.454 12.435 12.597 19.837 0.033 0.033 0.033 0.033 0.033 0.033 0.033 0.033 0.033 0.033 0.033 0.033 0.033 0.033 0.033 0.033 0.033 0.033 0 -0.040001 0.000000 0.000000 0.000000 0.000000 0.000000 0.000000 0.000000 0.000000 0.000000 0.000000 1211.520329 x 0.015885 
ROBOTLASER1 0 -1.570796 3.141593 0.008727 30.000000 0.001000 0 361 2.904 2.908 2.918 2.902 2.921 2.905 2.914 2.922 2.910 2.921 2.912 2.936 2.932 2.945 2.925 2.957 2.953 2.938 2.949 2.954 2.969 2.955 2.974 2.966 2.974 2.991 2.994 3.005 2.990 3.002 3.027 3.023 3.041 3.050 3.039 3.068 3.078 3.062 3.098 3.095 3.115 3.128 3.130 3.135 3.158 3.156 3.186 3.184 3.211 3.217 3.228 3.239 3.260 3.275 3.285 3.281 3.322 3.340 3.353 3.365 3.384 3.405 3.426 3.445 3.442 3.490 3.487 3.413 3.398 3.382 3.426 3.451 3.478 3.501 3.533 3.550 3.550 3.591 3.566 3.591 3.662 3.700 3.705 3.753 3.787 3.830 3.803 3.747 3.908 3.950 3.989 4.010 4.053 4.090 4.146 4.329 4.425 1.813 1.853 1.894 1.904 1.920 1.944 1.948 1.931 1.938 1.976 2.013 2.087 2.120 2.152 2.168 2.170 2.184 2.220 2.229 2.329 2.361 2.386 2.402 2.438 2.441 2.485 2.599 2.635 2.664 2.679 2.713 2.841 2.882 2.920 2.925 3.017 3.156 3.156 3.211 3.316 3.402 3.450 3.538 3.692 3.720 3.877 3.971 4.043 4.218 4.293 4.503 4.572 4.769 4.965 5.127 5.343 5.582 5.782 6.053 6.287 6.636 6.758 6.750 6.750 6.737 6.737 6.731 6.713 6.721 6.715 6.699 6.697 6.689 6.689 6.686 6.715 6.691 6.691 6.688 6.702 6.684 6.683 6.665 6.694 6.697 6.681 6.684 6.694 6.700 6.699 6.712 6.708 6.715 6.708 6.721 6.729 6.731 6.739 6.752 6.758 6.779 6.691 6.402 6.112 5.859 5.611 5.406 5.213 5.040 4.833 4.726 4.516 4.455 4.274 4.207 4.027 3.969 3.877 3.735 3.692 3.535 3.450 3.429 3.358 3.231 3.180 3.175 3.123 2.982 2.926 2.933 2.909 2.817 2.716 2.676 2.672 2.650 2.612 2.515 2.461 2.438 2.424 2.408 2.393 2.372 2.252 2.239 2.236 2.203 2.171 2.170 2.162 2.148 2.059 2.010 1.992 1.962 1.970 1.974 1.968 1.942 1.952 1.899 1.853 1.839 4.766 4.697 4.648 4.604 4.563 4.515 4.468 4.460 4.438 4.434 4.414 4.396 4.382 4.388 4.367 4.341 4.333 4.324 4.324 4.309 4.279 4.293 4.284 4.263 4.252 4.261 4.266 4.245 4.237 4.236 4.234 4.237 4.242 4.242 4.245 4.247 4.216 4.212 4.207 4.208 4.188 4.186 4.184 4.175 4.176 4.173 4.189 4.199 4.181 4.196 4.215 4.245 4.309 4.391 5.279 8.467 8.677 8.819 13.993 13.892 9.572 9.803 19.895 10.406 13.559 13.528 11.463 11.854 12.525 12.644 12.621 12.604 12.575 12.534 12.521 12.496 12.482 12.451 12.432 12.592 19.831 0.033 0.033 0.033 0.033 0.033 0.033 0.033 0.033 0.033 0.033 0.033 0.033 0.033 0.033 0.033 0.033 0.033 0.033 0 -0.040001 0.000000 0.000000 0.000000 0.000000 0.000000 0.000000 0.000000 0.000000 0.000000 0.000000 1211.520329 x 0.015885 
ROBOTLASER1 0 -1.570796 3.141593 0.008727 30.000000 0.001000 0 361 2.906 2.910 2.910 2.910 2.916 2.922 2.905 2.920 2.916 2.924 2.930 2.914 2.920 2.934 2.941 2.932 2.937 2.954 2.951 2.945 2.965 2.978 2.970 2.979 2.982 2.982 2.994 2.990 3.002 3.015 3.021 3.023 3.043 3.054 3.054 3.059 3.072 3.064 3.080 3.095 3.115 3.111 3.136 3.132 3.156 3.160 3.166 3.174 3.208 3.215 3.229 3.232 3.264 3.269 3.285 3.307 3.301 3.328 3.349 3.365 3.365 3.392 3.420 3.446 3.458 3.482 3.477 3.430 3.397 3.408 3.430 3.454 3.478 3.481 3.510 3.527 3.572 3.571 3.591 3.595 3.663 3.680 3.720 3.757 3.797 3.834 3.812 3.752 3.906 3.945 3.974 4.011 4.067 4.082 4.112 4.332 4.431 1.825 1.851 1.883 1.907 1.921 1.970 1.954 1.946 1.944 1.956 1.992 2.083 2.123 2.164 2.159 2.184 2.180 2.224 2.224 2.305 2.362 2.394 2.418 2.430 2.454 2.489 2.587 2.642 2.670 2.687 2.723 2.842 2.878 2.933 2.950 3.019 3.139 3.167 3.187 3.320 3.406 3.442 3.539 3.695 3.720 3.894 3.967 4.048 4.226 4.266 4.495 4.569 4.776 4.973 5.120 5.333 5.561 5.787 6.045 6.284 6.641 6.755 6.755 6.750 6.734 6.726 6.734 6.718 6.723 6.715 6.694 6.694 6.700 6.688 6.681 6.707 6.686 6.691 6.684 6.707 6.686 6.667 6.670 6.691 6.688 6.678 6.689 6.681 6.699 6.689 6.713 6.707 6.716 6.710 6.723 6.729 6.739 6.740 6.750 6.758 6.769 6.691 6.410 6.123 5.857 5.609 5.390 5.216 5.039 4.832 4.721 4.524 4.452 4.248 4.231 4.035 3.977 3.888 3.708 3.686 3.550 3.454 3.434 3.382 3.247 3.189 3.170 3.110 2.969 2.946 2.929 2.906 2.824 2.717 2.696 2.663 2.664 2.599 2.502 2.455 2.438 2.422 2.422 2.381 2.352 2.260 2.228 2.209 2.195 2.200 2.175 2.164 2.130 2.062 2.030 1.980 1.974 1.964 1.982 1.984 1.940 1.926 1.896 1.855 1.837 4.752 4.700 4.652 4.606 4.563 4.519 4.487 4.458 4.436 4.426 4.423 4.399 4.378 4.373 4.369 4.343 4.327 4.317 4.311 4.311 4.292 4.277 4.271 4.248 4.257 4.257 4.261 4.266 4.234 4.244 4.237 4.221 4.226 4.261 4.255 4.236 4.231 4.218 4.234 4.194 4.202 4.199 4.175 4.181 4.181 4.184 4.181 4.186 4.189 4.204 4.224 4.276 4.335 4.439 5.279 8.466 8.685 8.825 14.089 13.841 9.540 9.803 10.115 10.416 13.543 13.551 11.464 11.854 12.547 12.647 12.624 12.599 12.563 12.537 12.515 12.512 12.486 12.458 12.447 12.591 19.852 0.033 0.033 0.033 0.033 0.033 0.033 0.033 0.033 0.033 0.033 0.033 0.033 0.033 0.033 0.033 0.033 0.033 0.033 0 -0.040001 0.000000 0.000000 0.000000 0.000000 0.000000 0.000000 0.000000 0.000000 0.000000 0.000000 1211.520329 x 0.015885 
ROBOTLASER1 0 -1.570796 3.141593 0.008727 30.000000 0.001000 0 361 2.918 2.914 2.902 2.906 2.902 2.929 2.914 2.926 2.906 2.930 2.910 2.916 2.930 2.926 2.934 2.942 2.942 2.939 2.954 2.958 2.946 2.957 2.979 2.983 2.981 2.998 2.989 3.003 2.994 3.021 3.018 3.026 3.039 3.038 3.047 3.054 3.079 3.082 3.095 3.098 3.103 3.115 3.111 3.124 3.147 3.172 3.168 3.174 3.208 3.219 3.227 3.251 3.243 3.271 3.279 3.305 3.318 3.332 3.342 3.373 3.382 3.386 3.426 3.443 3.462 3.494 3.478 3.434 3.394 3.408 3.425 3.449 3.482 3.506 3.519 3.519 3.566 3.571 3.576 3.599 3.664 3.686 3.740 3.757 3.763 3.820 3.817 3.757 3.906 3.946 3.974 4.021 4.042 4.085 4.125 4.346 4.428 1.823 1.841 1.871 1.912 1.936 1.942 1.958 1.931 1.950 1.994 2.015 2.076 2.118 2.152 2.167 2.171 2.186 2.203 2.225 2.309 2.357 2.394 2.397 2.438 2.430 2.499 2.594 2.642 2.647 2.672 2.719 2.845 2.888 2.909 2.929 3.023 3.162 3.159 3.200 3.316 3.422 3.426 3.526 3.699 3.720 3.864 3.949 4.029 4.223 4.282 4.487 4.577 4.785 4.966 5.125 5.330 5.572 5.771 6.053 6.282 6.641 6.766 6.758 6.745 6.737 6.729 6.724 6.720 6.718 6.710 6.694 6.705 6.692 6.694 6.670 6.713 6.686 6.684 6.673 6.702 6.678 6.667 6.678 6.691 6.699 6.681 6.684 6.689 6.699 6.707 6.697 6.699 6.721 6.708 6.721 6.718 6.734 6.747 6.752 6.773 6.771 6.688 6.410 6.111 5.846 5.622 5.378 5.229 5.037 4.835 4.723 4.537 4.442 4.255 4.216 4.043 3.970 3.889 3.725 3.700 3.567 3.451 3.424 3.378 3.225 3.197 3.174 3.115 2.985 2.933 2.929 2.885 2.809 2.719 2.682 2.666 2.646 2.599 2.506 2.474 2.437 2.432 2.406 2.382 2.353 2.253 2.257 2.228 2.209 2.187 2.179 2.150 2.146 2.074 2.005 2.010 1.970 1.988 1.982 1.962 1.954 1.948 1.903 1.855 1.839 4.758 4.689 4.644 4.596 4.563 4.516 4.470 4.460 4.447 4.438 4.404 4.390 4.388 4.372 4.359 4.353 4.335 4.316 4.309 4.311 4.290 4.282 4.273 4.255 4.266 4.255 4.255 4.247 4.242 4.237 4.239 4.221 4.231 4.250 4.266 4.253 4.226 4.221 4.204 4.197 4.186 4.183 4.180 4.175 4.173 4.170 4.180 4.181 4.184 4.181 4.208 4.244 4.306 4.364 5.261 8.473 8.678 8.832 9.034 13.938 9.569 9.803 10.079 10.413 13.554 13.550 11.450 11.855 12.528 12.650 12.617 12.595 12.563 12.544 12.524 12.502 12.485 12.454 12.438 12.582 19.817 0.033 0.033 0.033 0.033 0.033 0.033 0.033 0.033 0.033 0.033 0.033 0.033 0.033 0.033 0.033 0.033 0.033 0.033 0 -0.040001 0.000000 0.000000 0.000000 0.000000 0.000000 0.000000 0.000000 0.000000 0.000000 0.000000 1211.520329 x 0.015885 
ROBOTLASER1 0 -1.570796 3.141593 0.008727 30.000000 0.001000 0 361 2.908 2.906 2.914 2.905 2.906 2.906 2.918 2.906 2.917 2.925 2.926 2.929 2.941 2.924 2.930 2.943 2.942 2.953 2.957 2.970 2.946 2.961 2.974 2.974 2.981 2.990 2.998 2.987 3.011 3.023 3.019 3.025 3.046 3.034 3.043 3.068 3.071 3.084 3.091 3.103 3.099 3.126 3.124 3.143 3.158 3.163 3.170 3.178 3.201 3.204 3.212 3.231 3.252 3.263 3.267 3.303 3.308 3.312 3.340 3.354 3.376 3.405 3.420 3.422 3.467 3.482 3.490 3.409 3.397 3.406 3.432 3.441 3.471 3.499 3.517 3.541 3.546 3.584 3.583 3.596 3.656 3.704 3.701 3.769 3.773 3.814 3.826 3.752 3.910 3.951 3.974 4.029 4.035 4.088 4.122 4.335 4.426 1.796 1.859 1.884 1.904 1.925 1.956 1.952 1.938 1.934 1.972 2.030 2.108 2.131 2.144 2.160 2.171 2.182 2.196 2.227 2.312 2.360 2.380 2.402 2.410 2.430 2.498 2.596 2.644 2.668 2.683 2.716 2.838 2.893 2.925 2.930 3.023 3.156 3.176 3.200 3.321 3.414 3.457 3.525 3.696 3.716 3.869 3.974 4.045 4.231 4.289 4.492 4.566 4.777 4.955 5.120 5.332 5.566 5.774 6.061 6.261 6.636 6.761 6.750 6.752 6.739 6.731 6.732 6.718 6.713 6.715 6.704 6.686 6.683 6.691 6.686 6.715 6.689 6.684 6.684 6.707 6.689 6.668 6.675 6.692 6.686 6.678 6.686 6.686 6.699 6.705 6.702 6.708 6.718 6.713 6.716 6.734 6.734 6.747 6.747 6.763 6.774 6.691 6.401 6.091 5.862 5.615 5.391 5.221 5.035 4.843 4.734 4.534 4.466 4.271 4.228 4.032 3.975 3.886 3.731 3.688 3.550 3.453 3.413 3.377 3.224 3.192 3.184 3.123 2.970 2.930 2.926 2.894 2.820 2.728 2.700 2.663 2.640 2.623 2.513 2.462 2.438 2.434 2.406 2.393 2.366 2.261 2.228 2.205 2.204 2.186 2.183 2.150 2.134 2.051 2.006 1.992 1.966 1.986 1.976 1.986 1.944 1.923 1.907 1.865 1.855 4.752 4.697 4.652 4.590 4.558 4.519 4.473 4.468 4.438 4.431 4.415 4.410 4.378 4.370 4.354 4.349 4.327 4.314 4.316 4.295 4.290 4.285 4.277 4.260 4.266 4.258 4.258 4.234 4.234 4.245 4.239 4.239 4.257 4.247 4.252 4.248 4.245 4.221 4.215 4.226 4.194 4.186 4.184 4.181 4.181 4.168 4.183 4.178 4.191 4.218 4.226 4.279 4.329 4.418 5.282 8.472 8.675 8.841 14.037 13.900 9.549 9.810 19.791 10.408 13.591 13.518 11.476 11.850 12.537 12.643 12.627 12.602 12.576 12.538 12.528 12.509 12.477 12.456 12.434 12.581 19.871 0.033 0.033 0.033 0.033 0.033 0.033 0.033 0.033 0.033 0.033 0.033 0.033 0.033 0.033 0.033 0.033 0.033 0.033 0 -0.040001 0.000000 0.000000 0.000000 0.000000 0.000000 0.000000 0.000000 0.000000 0.000000 0.000000 1211.520329 x 0.015885 
ROBOTLASER1 0 -1.570796 3.141593 0.008727 30.000000 0.001000 0 361 2.910 2.900 2.914 2.910 2.898 2.914 2.925 2.905 2.921 2.913 2.924 2.918 2.934 2.926 2.930 2.943 2.938 2.958 2.955 2.947 2.962 2.974 2.955 2.965 2.989 2.991 2.990 3.005 3.011 3.018 3.029 3.019 3.047 3.047 3.063 3.051 3.057 3.084 3.079 3.096 3.103 3.122 3.127 3.127 3.152 3.156 3.175 3.192 3.186 3.220 3.213 3.243 3.256 3.257 3.279 3.301 3.307 3.317 3.354 3.370 3.392 3.382 3.418 3.441 3.459 3.467 3.466 3.430 3.398 3.405 3.402 3.438 3.477 3.498 3.523 3.550 3.570 3.591 3.580 3.587 3.667 3.696 3.727 3.748 3.781 3.813 3.845 3.769 3.902 3.950 3.995 3.989 4.051 4.082 4.122 4.324 4.418 1.811 1.855 1.903 1.895 1.920 1.938 1.960 1.937 1.940 1.966 2.023 2.083 2.140 2.152 2.172 2.168 2.166 2.208 2.227 2.317 2.377 2.392 2.410 2.418 2.442 2.478 2.598 2.628 2.670 2.676 2.719 2.844 2.908 2.922 2.933 3.019 3.152 3.176 3.199 3.322 3.420 3.453 3.525 3.671 3.724 3.888 3.975 4.055 4.228 4.301 4.490 4.564 4.777 4.973 5.122 5.348 5.572 5.776 6.056 6.292 6.628 6.760 6.747 6.742 6.732 6.731 6.723 6.716 6.723 6.712 6.699 6.705 6.694 6.684 6.678 6.715 6.684 6.686 6.678 6.700 6.694 6.670 6.670 6.692 6.691 6.676 6.676 6.681 6.700 6.689 6.700 6.705 6.726 6.710 6.713 6.723 6.739 6.739 6.752 6.761 6.776 6.694 6.406 6.109 5.857 5.609 5.396 5.202 5.045 4.841 4.721 4.515 4.457 4.265 4.234 4.043 3.969 3.876 3.720 3.696 3.549 3.438 3.422 3.358 3.221 3.188 3.171 3.119 2.990 2.930 2.906 2.900 2.818 2.721 2.699 2.656 2.639 2.615 2.507 2.482 2.446 2.421 2.421 2.400 2.366 2.252 2.224 2.212 2.212 2.187 2.203 2.160 2.131 2.075 2.007 1.980 1.964 1.984 1.978 1.972 1.952 1.930 1.913 1.881 1.829 4.745 4.691 4.644 4.604 4.559 4.511 4.473 4.452 4.441 4.438 4.407 4.391 4.383 4.370 4.359 4.340 4.332 4.314 4.330 4.306 4.295 4.293 4.285 4.257 4.245 4.253 4.269 4.242 4.234 4.239 4.234 4.208 4.239 4.253 4.244 4.255 4.228 4.236 4.220 4.197 4.189 4.183 4.178 4.170 4.173 4.194 4.167 4.178 4.191 4.196 4.202 4.250 4.311 4.393 5.269 8.454 8.681 8.825 14.020 13.835 9.541 9.810 19.801 10.398 13.541 13.528 11.464 11.845 12.518 12.649 12.628 12.594 12.569 12.538 12.531 12.508 12.470 12.464 12.445 12.591 19.834 0.033 0.033 0.033 0.033 0.033 0.033 0.033 0.033 0.033 0.033 0.033 0.033 0.033 0.033 0.033 0.033 0.033 0.033 0 -0.040001 0.000000 0.000000 0.000000 0.000000 0.000000 0.000000 0.000000 0.000000 0.000000 0.000000 1211.520329 x 0.015885 
ROBOTLASER1 0 -1.570796 3.141593 0.008727 30.000000 0.001000 0 361 2.904 2.908 2.918 2.910 2.914 2.910 2.916 2.928 2.918 2.930 2.921 2.936 2.921 2.932 2.934 2.942 2.936 2.954 2.941 2.958 2.955 2.974 2.966 2.985 2.974 2.994 2.989 3.003 3.009 2.997 3.029 3.013 3.042 3.049 3.046 3.066 3.062 3.087 3.092 3.096 3.099 3.127 3.127 3.148 3.152 3.168 3.156 3.186 3.205 3.224 3.227 3.252 3.256 3.265 3.289 3.291 3.322 3.340 3.344 3.374 3.381 3.406 3.424 3.443 3.470 3.486 3.478 3.430 3.400 3.404 3.406 3.454 3.467 3.506 3.525 3.547 3.568 3.591 3.583 3.604 3.664 3.696 3.731 3.756 3.783 3.803 3.821 3.752 3.914 3.946 3.977 4.023 4.051 4.090 4.128 4.316 4.426 1.810 1.835 1.873 1.899 1.935 1.956 1.964 1.932 1.968 1.972 1.996 2.079 2.122 2.143 2.150 2.170 2.195 2.220 2.223 2.317 2.376 2.385 2.406 2.410 2.430 2.494 2.595 2.636 2.652 2.671 2.713 2.837 2.889 2.902 2.936 3.025 3.142 3.178 3.197 3.324 3.422 3.425 3.521 3.688 3.720 3.888 3.966 4.048 4.223 4.284 4.495 4.574 4.771 4.955 5.128 5.335 5.579 5.774 6.058 6.287 6.635 6.758 6.758 6.748 6.744 6.721 6.721 6.716 6.715 6.712 6.697 6.702 6.686 6.691 6.678 6.713 6.686 6.680 6.676 6.702 6.678 6.668 6.676 6.672 6.689 6.681 6.694 6.689 6.691 6.699 6.707 6.715 6.715 6.713 6.723 6.729 6.729 6.747 6.748 6.750 6.777 6.689 6.409 6.128 5.864 5.609 5.391 5.221 5.051 4.830 4.734 4.529 4.462 4.245 4.218 4.035 3.978 3.897 3.716 3.682 3.557 3.462 3.429 3.384 3.228 3.196 3.167 3.119 2.990 2.946 2.909 2.902 2.820 2.720 2.693 2.670 2.664 2.599 2.502 2.462 2.450 2.426 2.406 2.377 2.357 2.265 2.244 2.216 2.217 2.196 2.188 2.162 2.131 2.061 2.018 1.990 1.972 1.966 1.982 1.956 1.942 1.935 1.904 1.886 1.847 4.761 4.700 4.652 4.601 4.548 4.515 4.487 4.463 4.436 4.442 4.409 4.404 4.378 4.382 4.370 4.359 4.335 4.329 4.321 4.295 4.297 4.274 4.274 4.263 4.263 4.261 4.260 4.242 4.239 4.247 4.234 4.228 4.234 4.258 4.237 4.232 4.244 4.218 4.208 4.202 4.192 4.194 4.186 4.176 4.184 4.183 4.196 4.189 4.192 4.216 4.229 4.263 4.343 4.409 5.292 8.460 8.664 8.832 9.030 13.858 9.547 9.810 19.840 10.397 13.560 13.528 11.456 11.871 12.536 12.644 12.631 12.595 12.576 12.531 12.527 12.508 12.472 12.451 12.445 12.585 19.849 0.033 0.033 0.033 0.033 0.033 0.033 0.033 0.033 0.033 0.033 0.033 0.033 0.033 0.033 0.033 0.033 0.033 0.033 0 -0.040001 0.000000 0.000000 0.000000 0.000000 0.000000 0.000000 0.000000 0.000000 0.000000 0.000000 1211.520329 x 0.015885 
ROBOTLASER1 0 -1.570796 3.141593 0.008727 30.000000 0.001000 0 361 2.910 2.901 2.917 2.905 2.910 2.918 2.908 2.916 2.929 2.930 2.930 2.928 2.928 2.936 2.942 2.933 2.938 2.938 2.959 2.961 2.974 2.963 2.959 2.979 2.989 2.975 2.995 3.007 3.007 3.022 3.025 3.026 3.042 3.047 3.039 3.057 3.080 3.074 3.095 3.108 3.103 3.119 3.126 3.147 3.156 3.170 3.176 3.176 3.191 3.217 3.227 3.247 3.233 3.269 3.284 3.311 3.305 3.338 3.349 3.366 3.385 3.394 3.428 3.442 3.467 3.471 3.489 3.442 3.368 3.404 3.418 3.451 3.482 3.497 3.527 3.539 3.563 3.604 3.566 3.594 3.671 3.700 3.712 3.747 3.777 3.817 3.840 3.740 3.901 3.942 3.977 4.011 4.045 4.085 4.130 4.330 4.444 1.813 1.853 1.871 1.908 1.919 1.944 1.950 1.932 1.946 1.976 2.007 2.082 2.114 2.150 2.160 2.170 2.200 2.209 2.231 2.325 2.373 2.390 2.408 2.410 2.438 2.490 2.591 2.632 2.656 2.688 2.716 2.845 2.906 2.912 2.930 3.007 3.146 3.166 3.184 3.316 3.422 3.457 3.537 3.689 3.719 3.888 3.965 4.050 4.231 4.290 4.492 4.579 4.779 4.971 5.125 5.346 5.580 5.787 6.071 6.289 6.622 6.765 6.750 6.752 6.731 6.729 6.723 6.731 6.718 6.710 6.699 6.702 6.686 6.683 6.680 6.715 6.691 6.689 6.681 6.708 6.684 6.678 6.676 6.688 6.689 6.680 6.678 6.676 6.692 6.700 6.708 6.699 6.715 6.715 6.715 6.729 6.739 6.739 6.744 6.753 6.777 6.692 6.402 6.112 5.857 5.598 5.380 5.226 5.045 4.835 4.723 4.524 4.457 4.268 4.223 4.035 3.951 3.862 3.720 3.699 3.562 3.454 3.417 3.360 3.240 3.186 3.176 3.116 2.974 2.955 2.917 2.904 2.805 2.724 2.686 2.680 2.643 2.611 2.509 2.454 2.442 2.420 2.417 2.380 2.357 2.277 2.228 2.204 2.196 2.192 2.178 2.160 2.146 2.063 2.038 1.984 1.952 1.964 1.970 1.964 1.940 1.950 1.907 1.888 1.847 4.750 4.689 4.654 4.591 4.550 4.511 4.490 4.457 4.457 4.431 4.418 4.396 4.396 4.373 4.348 4.343 4.335 4.316 4.313 4.303 4.306 4.279 4.269 4.263 4.273 4.261 4.255 4.247 4.258 4.234 4.244 4.221 4.231 4.242 4.248 4.236 4.226 4.207 4.210 4.202 4.184 4.191 4.186 4.181 4.167 4.184 4.183 4.196 4.178 4.189 4.220 4.240 4.306 4.372 5.250 8.470 8.662 8.819 14.054 13.894 9.569 9.768 19.839 10.418 13.588 13.544 11.448 11.820 12.528 12.658 12.620 12.599 12.572 12.547 12.518 12.505 12.486 12.464 12.443 12.586 19.804 0.033 0.033 0.033 0.033 0.033 0.033 0.033 0.033 0.033 0.033 0.033 0.033 0.033 0.033 0.033 0.033 0.033 0.033 0 -0.040001 0.000000 0.000000 0.000000 0.000000 0.000000 0.000000 0.000000 0.000000 0.000000 0.000000 1211.520329 x 0.015885 
ROBOTLASER1 0 -1.570796 3.141593 0.008727 30.000000 0.001000 0 361 2.910 2.905 2.902 2.918 2.914 2.901 2.921 2.916 2.908 2.926 2.928 2.916 2.930 2.925 2.938 2.951 2.941 2.939 2.949 2.965 2.957 2.958 2.985 2.974 2.982 2.990 2.982 3.014 3.006 3.021 3.027 3.031 3.030 3.051 3.061 3.063 3.067 3.076 3.080 3.103 3.104 3.130 3.115 3.148 3.156 3.146 3.184 3.196 3.187 3.199 3.228 3.237 3.257 3.269 3.271 3.299 3.317 3.311 3.336 3.372 3.385 3.404 3.416 3.442 3.458 3.483 3.486 3.430 3.400 3.386 3.421 3.442 3.470 3.474 3.531 3.535 3.567 3.571 3.567 3.602 3.664 3.692 3.712 3.735 3.793 3.812 3.825 3.760 3.885 3.950 3.975 4.026 4.039 4.082 4.122 4.337 4.417 1.803 1.857 1.875 1.903 1.914 1.931 1.950 1.938 1.934 1.960 2.005 2.106 2.118 2.144 2.162 2.184 2.193 2.205 2.237 2.307 2.378 2.394 2.400 2.421 2.447 2.486 2.598 2.639 2.672 2.684 2.719 2.841 2.904 2.908 2.945 3.011 3.139 3.180 3.199 3.320 3.398 3.442 3.534 3.701 3.697 3.890 3.965 4.043 4.221 4.285 4.492 4.574 4.771 4.957 5.122 5.343 5.582 5.768 6.051 6.289 6.622 6.760 6.755 6.753 6.745 6.737 6.726 6.723 6.718 6.716 6.710 6.696 6.689 6.688 6.680 6.707 6.673 6.681 6.686 6.702 6.691 6.665 6.686 6.691 6.689 6.668 6.681 6.691 6.697 6.699 6.705 6.715 6.716 6.713 6.721 6.723 6.742 6.744 6.750 6.753 6.769 6.699 6.415 6.109 5.862 5.615 5.385 5.221 5.055 4.837 4.729 4.532 4.447 4.248 4.221 4.040 3.955 3.898 3.704 3.684 3.564 3.455 3.434 3.357 3.240 3.196 3.163 3.123 2.975 2.942 2.928 2.894 2.824 2.712 2.705 2.662 2.638 2.610 2.505 2.478 2.439 2.429 2.414 2.392 2.357 2.264 2.252 2.216 2.188 2.180 2.184 2.150 2.140 2.062 2.009 2.007 1.964 1.964 1.974 1.964 1.938 1.934 1.901 1.867 1.849 4.747 4.705 4.652 4.603 4.559 4.519 4.484 4.466 4.444 4.426 4.409 4.414 4.382 4.378 4.354 4.354 4.348 4.313 4.311 4.303 4.285 4.277 4.290 4.266 4.253 4.250 4.261 4.269 4.239 4.231 4.247 4.231 4.240 4.255 4.258 4.244 4.236 4.234 4.218 4.197 4.186 4.189 4.184 4.175 4.170 4.173 4.199 4.191 4.176 4.204 4.236 4.276 4.330 4.428 5.284 8.464 8.681 8.845 13.972 13.858 9.575 9.797 19.788 10.403 13.553 13.550 11.466 11.852 12.530 12.644 12.621 12.601 12.575 12.552 12.531 12.499 12.491 12.451 12.445 12.579 19.799 0.033 0.033 0.033 0.033 0.033 0.033 0.033 0.033 0.033 0.033 0.033 0.033 0.033 0.033 0.033 0.033 0.033 0.033 0 -0.040001 0.000000 0.000000 0.000000 0.000000 0.000000 0.000000 0.000000 0.000000 0.000000 0.000000 1211.520329 x 0.015885 
ROBOTLASER1 0 -1.570796 3.141593 0.008727 30.000000 0.001000 0 361 2.914 2.906 2.910 2.922 2.921 2.898 2.910 2.922 2.924 2.922 2.926 2.914 2.938 2.943 2.937 2.945 2.950 2.951 2.954 2.957 2.951 2.970 2.969 2.974 2.990 2.974 2.989 3.007 3.011 3.025 3.013 3.023 3.023 3.046 3.035 3.062 3.075 3.075 3.091 3.104 3.123 3.120 3.136 3.127 3.159 3.171 3.176 3.200 3.195 3.217 3.228 3.231 3.244 3.261 3.264 3.301 3.300 3.338 3.353 3.358 3.386 3.389 3.425 3.430 3.450 3.459 3.486 3.436 3.386 3.412 3.418 3.454 3.465 3.497 3.503 3.551 3.568 3.595 3.580 3.604 3.666 3.704 3.733 3.756 3.765 3.814 3.841 3.748 3.898 3.950 3.986 4.008 4.048 4.088 4.123 4.335 4.426 1.805 1.857 1.899 1.899 1.904 1.940 1.956 1.935 1.942 1.962 2.001 2.078 2.119 2.146 2.160 2.191 2.180 2.208 2.228 2.322 2.358 2.397 2.402 2.426 2.450 2.482 2.592 2.632 2.648 2.668 2.720 2.837 2.886 2.916 2.947 3.011 3.146 3.155 3.207 3.325 3.429 3.450 3.526 3.674 3.708 3.888 3.966 4.056 4.224 4.301 4.484 4.567 4.776 4.963 5.122 5.340 5.579 5.771 6.058 6.285 6.641 6.769 6.755 6.747 6.737 6.723 6.721 6.721 6.721 6.713 6.699 6.692 6.689 6.680 6.676 6.710 6.689 6.689 6.675 6.707 6.691 6.691 6.672 6.689 6.692 6.681 6.688 6.680 6.694 6.694 6.710 6.715 6.724 6.704 6.716 6.731 6.739 6.734 6.748 6.768 6.773 6.684 6.398 6.114 5.851 5.606 5.399 5.231 5.040 4.830 4.737 4.531 4.454 4.273 4.210 4.031 3.953 3.876 3.729 3.705 3.547 3.461 3.434 3.386 3.241 3.188 3.176 3.124 2.982 2.954 2.912 2.892 2.817 2.716 2.691 2.692 2.654 2.607 2.511 2.451 2.438 2.418 2.410 2.388 2.345 2.275 2.239 2.219 2.216 2.203 2.168 2.152 2.144 2.068 2.010 1.988 1.968 1.990 1.980 1.966 1.948 1.933 1.932 1.887 1.839 4.755 4.696 4.646 4.596 4.551 4.521 4.473 4.449 4.444 4.431 4.412 4.398 4.388 4.365 4.367 4.349 4.327 4.319 4.311 4.311 4.282 4.282 4.268 4.284 4.255 4.260 4.263 4.255 4.234 4.255 4.234 4.231 4.250 4.250 4.248 4.242 4.248 4.226 4.197 4.189 4.197 4.186 4.186 4.170 4.173 4.173 4.178 4.172 4.180 4.191 4.213 4.234 4.309 4.362 5.273 8.456 8.662 8.835 9.028 13.893 9.559 13.892 19.788 10.398 13.567 13.533 11.454 11.826 12.537 12.653 12.624 12.605 12.570 12.541 12.519 12.503 12.489 12.464 12.443 12.579 19.820 0.033 0.033 0.033 0.033 0.033 0.033 0.033 0.033 0.033 0.033 0.033 0.033 0.033 0.033 0.033 0.033 0.033 0.033 0 -0.040001 0.000000 0.000000 0.000000 0.000000 0.000000 0.000000 0.000000 0.000000 0.000000 0.000000 1211.520329 x 0.015885 
ROBOTLASER1 0 -1.570796 3.141593 0.008727 30.000000 0.001000 0 361 2.910 2.909 2.913 2.902 2.914 2.928 2.914 2.909 2.926 2.909 2.916 2.932 2.920 2.926 2.933 2.942 2.950 2.951 2.942 2.957 2.965 2.958 2.975 2.982 2.971 2.989 2.994 2.987 3.010 3.015 3.023 3.013 3.023 3.041 3.059 3.059 3.063 3.075 3.087 3.083 3.115 3.115 3.120 3.140 3.144 3.162 3.160 3.199 3.208 3.213 3.208 3.251 3.261 3.267 3.287 3.305 3.297 3.333 3.340 3.358 3.378 3.414 3.426 3.442 3.454 3.489 3.482 3.410 3.396 3.400 3.426 3.450 3.478 3.483 3.522 3.535 3.578 3.592 3.579 3.603 3.666 3.707 3.729 3.747 3.777 3.833 3.800 3.752 3.912 3.966 3.987 4.024 4.050 4.098 4.136 4.333 4.423 1.813 1.863 1.886 1.903 1.925 1.948 1.944 1.935 1.942 1.990 2.007 2.084 2.127 2.144 2.162 2.168 2.186 2.209 2.232 2.325 2.368 2.390 2.404 2.412 2.430 2.499 2.595 2.627 2.663 2.680 2.724 2.837 2.898 2.930 2.951 3.021 3.154 3.188 3.203 3.324 3.404 3.438 3.531 3.687 3.705 3.877 3.970 4.055 4.208 4.289 4.487 4.566 4.777 4.963 5.123 5.338 5.567 5.771 6.069 6.290 6.635 6.769 6.755 6.752 6.747 6.729 6.718 6.721 6.716 6.713 6.707 6.697 6.686 6.692 6.683 6.718 6.684 6.681 6.684 6.710 6.681 6.673 6.686 6.684 6.694 6.684 6.688 6.694 6.699 6.700 6.699 6.720 6.726 6.718 6.721 6.731 6.732 6.750 6.748 6.757 6.771 6.699 6.402 6.111 5.846 5.620 5.407 5.212 5.042 4.840 4.731 4.518 4.452 4.263 4.213 4.048 3.958 3.872 3.720 3.691 3.551 3.446 3.430 3.372 3.244 3.188 3.155 3.124 2.994 2.954 2.926 2.893 2.817 2.711 2.682 2.679 2.655 2.595 2.490 2.458 2.439 2.424 2.418 2.384 2.358 2.277 2.227 2.203 2.193 2.195 2.182 2.156 2.128 2.064 2.019 2.006 1.966 1.982 1.976 1.986 1.942 1.921 1.909 1.851 1.823 4.748 4.694 4.656 4.612 4.566 4.510 4.482 4.463 4.441 4.423 4.415 4.393 4.396 4.372 4.361 4.351 4.343 4.316 4.314 4.322 4.295 4.293 4.266 4.271 4.261 4.261 4.250 4.244 4.242 4.252 4.234 4.229 4.232 4.247 4.252 4.237 4.236 4.221 4.210 4.207 4.189 4.200 4.191 4.194 4.175 4.173 4.180 4.192 4.188 4.197 4.239 4.258 4.327 4.433 5.282 8.476 8.672 8.845 9.040 13.822 9.575 9.800 19.804 10.402 13.549 13.524 11.477 11.886 12.540 12.659 12.632 12.605 12.578 12.539 12.527 12.496 12.490 12.438 12.443 12.598 19.846 0.033 0.033 0.033 0.033 0.033 0.033 0.033 0.033 0.033 0.033 0.033 0.033 0.033 0.033 0.033 0.033 0.033 0.033 0 -0.040001 0.000000 0.000000 0.000000 0.000000 0.000000 0.000000 0.000000 0.000000 0.000000 0.000000 1211.520329 x 0.015885 
ROBOTLASER1 0 -1.570796 3.141593 0.008727 30.000000 0.001000 0 361 2.894 2.926 2.914 2.902 2.914 2.904 2.910 2.922 2.910 2.926 2.922 2.925 2.934 2.941 2.930 2.938 2.943 2.955 2.951 2.966 2.966 2.970 2.977 2.979 2.970 2.991 2.995 3.005 3.014 3.005 3.022 3.026 3.046 3.045 3.059 3.055 3.072 3.087 3.095 3.086 3.110 3.123 3.126 3.124 3.156 3.160 3.178 3.191 3.196 3.209 3.229 3.243 3.244 3.264 3.281 3.299 3.317 3.316 3.333 3.374 3.385 3.390 3.409 3.434 3.462 3.491 3.459 3.428 3.393 3.406 3.438 3.428 3.482 3.502 3.521 3.546 3.557 3.586 3.588 3.598 3.672 3.700 3.731 3.761 3.787 3.804 3.820 3.761 3.912 3.942 3.977 4.019 4.042 4.082 4.117 4.340 4.426 1.812 1.871 1.904 1.896 1.931 1.970 1.954 1.925 1.952 1.970 2.015 2.084 2.120 2.144 2.176 2.187 2.195 2.208 2.231 2.326 2.361 2.402 2.398 2.408 2.434 2.486 2.603 2.642 2.652 2.676 2.717 2.840 2.904 2.914 2.946 3.011 3.154 3.172 3.204 3.316 3.414 3.450 3.527 3.684 3.724 3.865 3.954 4.059 4.234 4.276 4.495 4.574 4.774 4.970 5.125 5.340 5.572 5.761 6.072 6.269 6.633 6.763 6.747 6.737 6.734 6.737 6.731 6.726 6.715 6.712 6.694 6.702 6.684 6.684 6.686 6.720 6.689 6.678 6.673 6.705 6.676 6.680 6.681 6.689 6.694 6.673 6.691 6.684 6.699 6.696 6.707 6.702 6.716 6.715 6.716 6.732 6.732 6.745 6.747 6.753 6.777 6.697 6.407 6.125 5.870 5.606 5.390 5.212 5.047 4.833 4.726 4.523 4.457 4.266 4.232 4.018 3.991 3.886 3.709 3.689 3.539 3.450 3.434 3.382 3.239 3.196 3.174 3.124 2.974 2.954 2.906 2.889 2.822 2.717 2.700 2.656 2.652 2.610 2.498 2.470 2.434 2.436 2.410 2.386 2.357 2.263 2.241 2.205 2.203 2.189 2.192 2.159 2.144 2.066 2.035 1.988 1.966 1.982 1.974 1.988 1.942 1.938 1.930 1.863 1.855 4.745 4.696 4.652 4.596 4.566 4.507 4.490 4.463 4.450 4.426 4.415 4.404 4.396 4.377 4.372 4.353 4.332 4.316 4.314 4.306 4.295 4.297 4.271 4.261 4.269 4.261 4.269 4.247 4.231 4.239 4.229 4.242 4.229 4.247 4.248 4.234 4.234 4.226 4.189 4.199 4.194 4.194 4.188 4.173 4.173 4.181 4.172 4.189 4.191 4.184 4.224 4.266 4.309 4.393 5.253 8.472 8.678 8.829 13.993 13.992 9.569 13.868 19.779 10.402 13.547 13.549 11.475 11.851 12.557 12.652 12.626 12.586 12.573 12.543 12.525 12.491 12.480 12.463 12.434 12.591 19.846 0.033 0.033 0.033 0.033 0.033 0.033 0.033 0.033 0.033 0.033 0.033 0.033 0.033 0.033 0.033 0.033 0.033 0.033 0 -0.040001 0.000000 0.000000 0.000000 0.000000 0.000000 0.000000 0.000000 0.000000 0.000000 0.000000 1211.520329 x 0.015885 
ROBOTLASER1 0 -1.570796 3.141593 0.008727 30.000000 0.001000 0 361 2.900 2.908 2.900 2.894 2.926 2.921 2.910 2.921 2.910 2.928 2.913 2.914 2.946 2.926 2.938 2.934 2.938 2.954 2.942 2.958 2.969 2.962 2.970 2.989 2.982 2.978 2.990 3.007 3.001 3.019 3.027 3.023 3.033 3.039 3.066 3.068 3.071 3.076 3.092 3.087 3.094 3.127 3.134 3.123 3.140 3.159 3.172 3.189 3.207 3.216 3.224 3.248 3.256 3.265 3.280 3.301 3.317 3.336 3.345 3.369 3.386 3.406 3.426 3.422 3.467 3.486 3.490 3.434 3.381 3.404 3.429 3.453 3.482 3.481 3.513 3.527 3.563 3.606 3.566 3.594 3.672 3.711 3.732 3.741 3.788 3.817 3.844 3.744 3.886 3.967 3.983 4.013 4.047 4.093 4.128 4.335 4.409 1.800 1.847 1.882 1.929 1.925 1.932 1.944 1.942 1.966 1.964 1.994 2.075 2.115 2.143 2.171 2.176 2.186 2.219 2.244 2.325 2.354 2.381 2.417 2.422 2.453 2.482 2.607 2.639 2.664 2.672 2.728 2.828 2.890 2.926 2.937 3.018 3.152 3.182 3.193 3.321 3.422 3.439 3.527 3.682 3.716 3.877 3.959 4.048 4.215 4.295 4.490 4.574 4.774 4.957 5.125 5.341 5.572 5.790 6.067 6.287 6.633 6.758 6.747 6.748 6.736 6.737 6.729 6.728 6.716 6.710 6.710 6.696 6.691 6.681 6.686 6.702 6.689 6.681 6.681 6.715 6.680 6.665 6.665 6.686 6.697 6.676 6.681 6.691 6.705 6.699 6.708 6.710 6.710 6.718 6.721 6.732 6.732 6.753 6.750 6.758 6.777 6.700 6.414 6.127 5.857 5.611 5.391 5.216 5.045 4.845 4.732 4.532 4.452 4.266 4.226 4.019 3.974 3.884 3.720 3.693 3.550 3.461 3.433 3.385 3.231 3.192 3.159 3.119 2.987 2.929 2.928 2.888 2.817 2.727 2.675 2.676 2.666 2.620 2.493 2.475 2.447 2.426 2.410 2.382 2.361 2.263 2.252 2.219 2.187 2.193 2.178 2.168 2.131 2.047 2.039 1.992 1.972 1.972 1.984 1.970 1.950 1.920 1.898 1.861 1.845 4.758 4.697 4.651 4.604 4.569 4.527 4.479 4.449 4.449 4.426 4.418 4.391 4.388 4.370 4.370 4.353 4.330 4.324 4.313 4.316 4.298 4.289 4.265 4.261 4.269 4.258 4.252 4.247 4.234 4.239 4.247 4.223 4.239 4.253 4.245 4.239 4.232 4.224 4.216 4.202 4.189 4.180 4.189 4.186 4.172 4.172 4.176 4.186 4.188 4.199 4.226 4.258 4.340 4.399 5.271 8.463 8.662 8.845 14.063 13.847 9.550 9.793 19.796 10.406 13.565 13.530 11.491 11.874 12.540 12.658 12.626 12.595 12.576 12.535 12.512 12.507 12.480 12.458 12.445 12.584 19.820 0.033 0.033 0.033 0.033 0.033 0.033 0.033 0.033 0.033 0.033 0.033 0.033 0.033 0.033 0.033 0.033 0.033 0.033 0 -0.040001 0.000000 0.000000 0.000000 0.000000 0.000000 0.000000 0.000000 0.000000 0.000000 0.000000 1211.520329 x 0.015885 
ROBOTLASER1 0 -1.570796 3.141593 0.008727 30.000000 0.001000 0 361 2.908 2.906 2.910 2.898 2.914 2.905 2.913 2.920 2.912 2.930 2.913 2.928 2.938 2.937 2.946 2.951 2.958 2.953 2.942 2.951 2.954 2.974 2.971 2.979 2.990 2.998 3.002 2.998 3.010 3.018 3.007 3.038 3.041 3.046 3.047 3.071 3.063 3.087 3.098 3.104 3.094 3.111 3.140 3.142 3.164 3.146 3.172 3.189 3.204 3.224 3.212 3.241 3.260 3.277 3.281 3.305 3.321 3.340 3.341 3.370 3.373 3.389 3.429 3.445 3.455 3.461 3.479 3.434 3.394 3.409 3.441 3.438 3.475 3.506 3.510 3.551 3.566 3.578 3.587 3.598 3.644 3.703 3.716 3.757 3.796 3.821 3.828 3.763 3.912 3.926 3.975 4.005 4.051 4.082 4.125 4.330 4.430 1.823 1.859 1.887 1.905 1.921 1.946 1.948 1.924 1.940 1.964 2.023 2.107 2.120 2.144 2.167 2.172 2.187 2.201 2.235 2.328 2.357 2.397 2.400 2.421 2.458 2.478 2.599 2.635 2.652 2.666 2.725 2.849 2.892 2.914 2.929 3.021 3.139 3.186 3.205 3.326 3.414 3.449 3.527 3.676 3.724 3.885 3.982 4.051 4.234 4.298 4.484 4.572 4.787 4.971 5.130 5.348 5.567 5.777 6.066 6.276 6.627 6.758 6.753 6.745 6.739 6.740 6.736 6.721 6.718 6.713 6.705 6.694 6.697 6.691 6.684 6.710 6.684 6.684 6.676 6.702 6.676 6.676 6.683 6.697 6.702 6.673 6.686 6.688 6.697 6.705 6.710 6.710 6.720 6.713 6.726 6.732 6.745 6.732 6.753 6.766 6.782 6.692 6.407 6.123 5.854 5.625 5.383 5.210 5.043 4.838 4.731 4.532 4.465 4.263 4.226 4.032 3.977 3.890 3.727 3.696 3.563 3.454 3.437 3.364 3.240 3.192 3.171 3.119 2.974 2.936 2.932 2.906 2.812 2.723 2.686 2.682 2.640 2.603 2.511 2.478 2.458 2.439 2.409 2.406 2.354 2.265 2.252 2.207 2.208 2.187 2.170 2.176 2.130 2.055 2.007 1.994 1.968 1.970 1.980 1.962 1.942 1.922 1.913 1.855 1.839 4.748 4.694 4.652 4.598 4.563 4.516 4.479 4.468 4.433 4.420 4.407 4.406 4.386 4.375 4.361 4.353 4.340 4.327 4.314 4.308 4.290 4.290 4.263 4.266 4.258 4.257 4.245 4.244 4.242 4.239 4.250 4.224 4.247 4.247 4.255 4.239 4.221 4.221 4.210 4.204 4.199 4.188 4.199 4.184 4.162 4.186 4.186 4.172 4.178 4.184 4.221 4.258 4.309 4.391 5.274 8.470 8.678 8.829 9.043 13.986 9.552 9.793 19.801 10.406 13.541 13.540 11.493 11.823 12.536 12.653 12.636 12.600 12.581 12.541 12.509 12.507 12.482 12.445 12.438 12.594 19.831 0.033 0.033 0.033 0.033 0.033 0.033 0.033 0.033 0.033 0.033 0.033 0.033 0.033 0.033 0.033 0.033 0.033 0.033 0 -0.040001 0.000000 0.000000 0.000000 0.000000 0.000000 0.000000 0.000000 0.000000 0.000000 0.000000 1211.520329 x 0.015885 
ROBOTLASER1 0 -1.570796 3.141593 0.008727 30.000000 0.001000 0 361 2.908 2.898 2.914 2.905 2.910 2.922 2.918 2.921 2.918 2.926 2.926 2.928 2.930 2.946 2.930 2.938 2.953 2.954 2.947 2.962 2.963 2.965 2.974 2.962 2.981 2.987 2.991 3.003 2.998 3.022 3.019 3.039 3.035 3.035 3.055 3.063 3.080 3.084 3.084 3.104 3.106 3.122 3.135 3.152 3.159 3.159 3.164 3.192 3.191 3.204 3.217 3.232 3.257 3.261 3.289 3.280 3.304 3.334 3.353 3.357 3.381 3.408 3.428 3.437 3.447 3.487 3.477 3.430 3.394 3.406 3.424 3.451 3.474 3.502 3.523 3.539 3.567 3.592 3.567 3.604 3.648 3.716 3.704 3.773 3.803 3.820 3.828 3.757 3.914 3.950 3.997 4.016 4.048 4.096 4.123 4.335 4.423 1.819 1.855 1.877 1.899 1.908 1.940 1.946 1.928 1.948 1.970 1.990 2.080 2.126 2.152 2.154 2.180 2.196 2.216 2.228 2.325 2.358 2.402 2.418 2.428 2.458 2.485 2.599 2.634 2.667 2.672 2.721 2.845 2.884 2.906 2.922 3.023 3.158 3.180 3.203 3.328 3.422 3.450 3.521 3.701 3.703 3.886 3.974 4.026 4.228 4.295 4.492 4.574 4.777 4.966 5.127 5.348 5.556 5.785 6.053 6.300 6.630 6.760 6.747 6.748 6.742 6.728 6.718 6.723 6.720 6.708 6.697 6.707 6.686 6.688 6.678 6.704 6.686 6.692 6.676 6.705 6.681 6.670 6.686 6.697 6.697 6.678 6.673 6.683 6.699 6.705 6.710 6.712 6.721 6.708 6.721 6.736 6.739 6.737 6.753 6.765 6.777 6.696 6.407 6.115 5.872 5.625 5.401 5.223 5.045 4.830 4.726 4.524 4.457 4.269 4.218 4.029 3.966 3.886 3.732 3.691 3.558 3.451 3.430 3.372 3.233 3.184 3.178 3.119 2.975 2.929 2.909 2.902 2.829 2.724 2.676 2.680 2.643 2.623 2.502 2.463 2.439 2.436 2.410 2.378 2.369 2.257 2.240 2.220 2.189 2.204 2.167 2.176 2.119 2.066 2.009 1.988 1.970 1.970 1.978 1.964 1.944 1.936 1.907 1.861 1.833 4.744 4.705 4.649 4.606 4.556 4.524 4.481 4.463 4.439 4.433 4.414 4.402 4.391 4.367 4.351 4.353 4.340 4.327 4.316 4.301 4.285 4.287 4.269 4.260 4.263 4.266 4.260 4.263 4.237 4.253 4.237 4.247 4.257 4.248 4.255 4.242 4.229 4.234 4.208 4.202 4.196 4.196 4.191 4.189 4.167 4.186 4.178 4.188 4.191 4.215 4.226 4.274 4.343 4.428 5.290 8.460 8.661 8.842 14.073 13.880 9.573 9.797 19.831 10.402 13.566 13.512 11.447 11.886 12.547 12.640 12.624 12.592 12.573 12.546 12.512 12.495 12.479 12.451 12.448 12.582 19.817 0.033 0.033 0.033 0.033 0.033 0.033 0.033 0.033 0.033 0.033 0.033 0.033 0.033 0.033 0.033 0.033 0.033 0.033 0 -0.040001 0.000000 0.000000 0.000000 0.000000 0.000000 0.000000 0.000000 0.000000 0.000000 0.000000 1211.520329 x 0.015885 
